{"type":"FeatureCollection","features":[{"type":"Feature","properties":{"name":"CLIFTH","desc":"CLIFF LAKE TRAILHEAD","time":"1999-08-08T05:26:23Z","sym":null},"geometry":{"type":"Point","coordinates":[-118.9872900248,37.1059700251,0]}},{"type":"Feature","properties":{"name":"MAXNTH","desc":"MAXSON TRAILHEAD","time":"2005-08-23T17:00:00Z","sym":null},"geometry":{"type":"Point","coordinates":[-118.9627599716,37.0825699568,0]}},{"type":"Feature","properties":{"name":"VOYAGR","desc":"VOYAGER ROCK TRAILHEAD","time":"2005-08-23T16:58:31Z","sym":null},"geometry":{"type":"Point","coordinates":[-118.9607741833,37.1054786444,0]}},{"type":"Feature","properties":{"name":"WOODCH","desc":"WOODCHUCK TRAILHEAD","time":"1999-07-28T17:44:20Z","sym":null},"geometry":{"type":"Point","coordinates":[-118.96141994,36.9974999428,0]}},{"type":"Feature","properties":{"name":"RANCHA","desc":"RANCHERIA TRAILHEAD","time":"1999-07-28T17:44:20Z","sym":null},"geometry":{"type":"Point","coordinates":[-118.9560300112,36.9754500389,0]}},{"type":"Feature","properties":{"name":"EAGLEC","desc":"EAGLE CREEK TRAILHEAD","time":"2001-10-02T18:05:15Z","sym":null},"geometry":{"type":"Point","coordinates":[-118.5953599215,36.4485199451,0]}},{"type":"Feature","properties":{"name":"ROWLTH","desc":"ROWELL MDW TRAILHEAD","time":"2002-07-10T14:30:42Z","sym":null},"geometry":{"type":"Point","coordinates":[-118.7654099464,36.723009944,0]}},{"type":"Feature","properties":{"name":"BEARCD","desc":"BEAR CK DAM TRAILHEAD","time":"1999-08-11T01:55:02Z","sym":null},"geometry":{"type":"Point","coordinates":[-118.9763599634,37.3363200426,0]}},{"type":"Feature","properties":{"name":"EDISNJ","desc":"EDISON TRAILHEADS JCT","time":"1999-08-08T08:54:22Z","sym":null},"geometry":{"type":"Point","coordinates":[-119.0142199993,37.381450057,0]}},{"type":"Feature","properties":{"name":"MONOTH","desc":"MONO CREEK TRAILHEAD","time":"1999-08-08T08:54:22Z","sym":null},"geometry":{"type":"Point","coordinates":[-119.0099500418,37.3811099529,0]}},{"type":"Feature","properties":{"name":"EDISNJ","desc":"EDISON TRAILHEADS JCT","time":"1999-08-08T08:54:22Z","sym":null},"geometry":{"type":"Point","coordinates":[-119.0142199993,37.381450057,0]}},{"type":"Feature","properties":{"name":"ONION2","desc":"2WD ONION SPR TRAILHEAD","time":"2002-07-25T23:09:00Z","sym":null},"geometry":{"type":"Point","coordinates":[-119.01947999,37.3835699558,0]}},{"type":"Feature","properties":{"name":"ONION4","desc":"4WD ONION SPR TRAILHEAD","time":"2002-07-19T05:09:25Z","sym":null},"geometry":{"type":"Point","coordinates":[-119.0746200085,37.4100300074,0]}},{"type":"Feature","properties":{"name":"ISBERG","desc":"ISBERG PASS TRAILHEAD","time":"2004-10-22T07:08:04Z","sym":null},"geometry":{"type":"Point","coordinates":[-119.2658400536,37.5472400188,0]}},{"type":"Feature","properties":{"name":"ARMY PASS","desc":"LITTLE COTTONWOOD TRAILHEAD 9300","time":"2003-04-15T17:43:47Z"},"geometry":{"type":"LineString","coordinates":[[-118.1202700138,36.4732999802,0],[-118.1325999498,36.4669300318,0],[-118.1622400284,36.4601099491,0],[-118.1613600254,36.4506499767,0],[-118.1648099422,36.449630022,0],[-118.1661399603,36.4520299435,0],[-118.1672400236,36.4527699947,0],[-118.1698900461,36.4532999992,0]]}},{"type":"Feature","properties":{"name":"COTTONWOOD PASS","desc":"LITTLE COTTONWOOD TRAILHEAD 9300","time":"2003-04-15T17:43:47Z"},"geometry":{"type":"LineString","coordinates":[[-118.1202700138,36.4732999802,0],[-118.1325999498,36.4669300318,0],[-118.1622400284,36.4601099491,0],[-118.1613600254,36.4506499767,0],[-118.1648099422,36.449630022,0],[-118.1705877781,36.4481288195,0]]}},{"type":"Feature","properties":{"name":"MULKEY PASS","desc":"LITTLE COTTONWOOD TRAILHEAD 9300","time":"2003-04-15T17:43:47Z"},"geometry":{"type":"LineString","coordinates":[[-118.1202700138,36.4732999802,0],[-118.1325999498,36.4669300318,0],[-118.1622400284,36.4601099491,0],[-118.1613600254,36.4506499767,0]]}},{"type":"Feature","properties":{"name":"RUSH CREEK","desc":"RUSH CREEK TRAILHEAD 7200","time":"2005-08-07T00:20:11Z"},"geometry":{"type":"LineString","coordinates":[[-119.1277490854,37.7834880352,0],[-119.1295226812,37.7785885334,0],[-119.1298500299,37.7631100416,0],[-119.131193161,37.7598071098,0],[-119.1311299801,37.7581599951,0]]}},{"type":"Feature","properties":{"name":"AGNWHI","desc":"AGNEW MDW HIGH TRAILHEAD 8300","time":"1998-10-16T09:00:18Z","sym":null},"geometry":{"type":"Point","coordinates":[-119.0846400261,37.6827399731,0]}},{"type":"Feature","properties":{"name":"AGNWSR","desc":"AGNEW MDW SHADOW AND RIVER TRAILHEAD 8300","time":"2004-07-29T22:08:30Z","sym":null},"geometry":{"type":"Point","coordinates":[-119.086130023,37.682090044,0]}},{"type":"Feature","properties":{"name":"AGNWHC","desc":"AGNEW MDW HORSE CAMP TRAILHEAD","time":"2004-07-27T03:40:13Z","sym":null},"geometry":{"type":"Point","coordinates":[-119.0919699669,37.6827700138,0]}},{"type":"Feature","properties":{"name":"LITCOT","desc":"LITTLE COTTONWOOD TRAILHEAD 9300","time":"2003-04-15T17:43:47Z","sym":null},"geometry":{"type":"Point","coordinates":[-118.1202700138,36.4732999802,0]}},{"type":"Feature","properties":{"name":"ARMYOT","desc":"ARMY PASS OLD TRAILHEAD 9600","time":"2003-04-15T17:40:16Z","sym":null},"geometry":{"type":"Point","coordinates":[-118.1622400284,36.4601099491,0]}},{"type":"Feature","properties":{"name":"MULKEY","desc":"MULKEY PASS TRAILHEAD 9900","time":"2003-04-15T17:40:24Z","sym":null},"geometry":{"type":"Point","coordinates":[-118.1613600254,36.4506499767,0]}},{"type":"Feature","properties":{"name":"ARMYNT","desc":"ARMY PASS NEW TRAILHEAD 10000","time":"2005-09-14T22:35:14Z","sym":null},"geometry":{"type":"Point","coordinates":[-118.1698900461,36.4532999992,0]}},{"type":"Feature","properties":{"name":"SHPRDH","desc":"HORSE TRAILHEAD SHEPHERD PASS","time":"2001-06-20T19:23:09Z","sym":null},"geometry":{"type":"Point","coordinates":[-118.2645900249,36.7375500202,0]}},{"type":"Feature","properties":{"name":"BAIRST","desc":"BAIRS CK TRAILHEAD 6200","time":"2003-06-29T08:03:53Z","sym":null},"geometry":{"type":"Point","coordinates":[-118.240350008,36.6777299643,0]}},{"type":"Feature","properties":{"name":"BAXPTH","desc":"BAXTER PASS TRAILHEAD 6000","time":"2003-05-07T01:14:36Z","sym":null},"geometry":{"type":"Point","coordinates":[-118.297522068,36.8446618319,0]}},{"type":"Feature","properties":{"name":"NSFORK","desc":"NORTH AND SOUTH FORK TRAILHEAD 7800","time":"2003-03-17T16:13:34Z","sym":null},"geometry":{"type":"Point","coordinates":[-118.4369599819,37.1251499653,0]}},{"type":"Feature","properties":{"name":"BIRCHL","desc":"BIRCH LAKE TRAILHEAD 6600","time":"2005-07-06T16:41:38Z","sym":null},"geometry":{"type":"Point","coordinates":[-118.3545299768,37.0873999596,0]}},{"type":"Feature","properties":{"name":"4WDEND","desc":"POSSIBLE 4WD TRAILHEAD","time":"2005-06-20T19:44:45Z","sym":null},"geometry":{"type":"Point","coordinates":[-119.0965100527,38.0205899477,0]}},{"type":"Feature","properties":{"name":"BLACKP","desc":"BLACK POINT 2WD TRAILHEAD 6400","time":"2005-06-01T22:44:28Z","sym":null},"geometry":{"type":"Point","coordinates":[-119.0845999718,38.0271300077,0]}},{"type":"Feature","properties":{"name":"BUTMGC","desc":"BUTTERMILK MCGEE CK TRAILHEAD 8700","time":"2005-08-08T21:06:50Z","sym":null},"geometry":{"type":"Point","coordinates":[-118.6214100122,37.2758799791,0]}},{"type":"Feature","properties":{"name":"LMRWIN","desc":"LAKE MARY RD WINTER TRAILHEAD 8600","time":"2005-07-24T01:56:28Z","sym":null},"geometry":{"type":"Point","coordinates":[-119.0059800148,37.6239800453,0]}},{"type":"Feature","properties":{"name":"EMERLD","desc":"EMERALD LAKE TRAILHEAD 9100","time":"2005-07-24T01:56:27Z","sym":null},"geometry":{"type":"Point","coordinates":[-118.9907699823,37.591539979,0]}},{"type":"Feature","properties":{"name":"DCKHRT","desc":"DUCK PASS AND HEART LK TRAILHEAD 9100","time":"2005-07-24T01:56:27Z","sym":null},"geometry":{"type":"Point","coordinates":[-118.9891500473,37.5912400484,0]}},{"type":"Feature","properties":{"name":"LITCOT","desc":"LITTLE COTTONWOOD TRAILHEAD 9300","time":"2003-04-15T17:43:47Z","sym":null},"geometry":{"type":"Point","coordinates":[-118.1202700138,36.4732999802,0]}},{"type":"Feature","properties":{"name":"LITCOT","desc":"LITTLE COTTONWOOD TRAILHEAD 9300","time":"2003-04-15T17:43:47Z","sym":null},"geometry":{"type":"Point","coordinates":[-118.1202700138,36.4732999802,0]}},{"type":"Feature","properties":{"name":"ARMYOT","desc":"ARMY PASS OLD TRAILHEAD 9600","time":"2003-04-15T17:40:16Z","sym":null},"geometry":{"type":"Point","coordinates":[-118.1622400284,36.4601099491,0]}},{"type":"Feature","properties":{"name":"MULKEY","desc":"MULKEY PASS TRAILHEAD 9900","time":"2003-04-15T17:40:24Z","sym":null},"geometry":{"type":"Point","coordinates":[-118.1613600254,36.4506499767,0]}},{"type":"Feature","properties":{"name":"COTTON","desc":"COTTONWOOD PASS TRAILHEAD 9900","time":"2003-04-15T17:40:30Z","sym":null},"geometry":{"type":"Point","coordinates":[-118.1705877781,36.4481288195,0]}},{"type":"Feature","properties":{"name":"LITCOT","desc":"LITTLE COTTONWOOD TRAILHEAD 9300","time":"2003-04-15T17:43:47Z","sym":null},"geometry":{"type":"Point","coordinates":[-118.1202700138,36.4732999802,0]}},{"type":"Feature","properties":{"name":"DEVILS","desc":"DEVILS POSTPILE TRAILHEAD 7600","time":"1998-10-16T09:00:18Z","sym":null},"geometry":{"type":"Point","coordinates":[-119.0846999884,37.6297399998,0]}},{"type":"Feature","properties":{"name":"SHPRDH","desc":"HORSE TRAILHEAD SHEPHERD PASS","time":"2001-06-20T19:23:09Z","sym":null},"geometry":{"type":"Point","coordinates":[-118.2645900249,36.7375500202,0]}},{"type":"Feature","properties":{"name":"GEORGT","desc":"GEORGE CK TRAILHEAD 6400","time":"2003-06-29T08:08:05Z","sym":null},"geometry":{"type":"Point","coordinates":[-118.235550046,36.6490900517,0]}},{"type":"Feature","properties":{"name":"LMRWIN","desc":"LAKE MARY RD WINTER TRAILHEAD 8600","time":"2005-07-24T01:56:28Z","sym":null},"geometry":{"type":"Point","coordinates":[-119.0059800148,37.6239800453,0]}},{"type":"Feature","properties":{"name":"CRYSTL","desc":"CRYSTAL LAKE TRAILHEAD 9000","time":"2005-07-24T01:56:27Z","sym":null},"geometry":{"type":"Point","coordinates":[-119.01098001,37.603309989,0]}},{"type":"Feature","properties":{"name":"BARRET","desc":"LAKE BARRETT TRAILHEAD 9000","time":"2005-07-24T01:56:27Z","sym":null},"geometry":{"type":"Point","coordinates":[-119.0104000568,37.6027699709,0]}},{"type":"Feature","properties":{"name":"GRANIT","desc":"GRANITE VIEW DR TRAILHEAD 6950","time":"2006-04-30T23:19:21Z","sym":null},"geometry":{"type":"Point","coordinates":[-118.1839499474,36.5539666414,0]}},{"type":"Feature","properties":{"name":"GRNCRK","desc":"GREEN CREEK TRAILHEAD 8000","time":"2005-07-24T01:56:24Z","sym":null},"geometry":{"type":"Point","coordinates":[-119.2754600048,38.1122299433,0]}},{"type":"Feature","properties":{"name":"HILCRK","desc":"HILTON CREEK TRAILHEAD 7800","time":"2005-07-24T01:56:28Z","sym":null},"geometry":{"type":"Point","coordinates":[-118.7748999596,37.5513099432,0]}},{"type":"Feature","properties":{"name":"HILSTK","desc":"HILTON CREEK STOCK TRAILHEAD 7200","time":"2005-07-24T01:56:28Z","sym":null},"geometry":{"type":"Point","coordinates":[-118.7554600239,37.5644600391,0]}},{"type":"Feature","properties":{"name":"HORSPR","desc":"SPRING NEAR HORTON TRAILHEAD 7777","time":"2005-08-08T20:49:59Z","sym":null},"geometry":{"type":"Point","coordinates":[-118.6187200546,37.3109799623,0]}},{"type":"Feature","properties":{"name":"HORTON","desc":"HORTON LAKES TRAILHEAD 8000","time":"2005-08-08T20:52:16Z","sym":null},"geometry":{"type":"Point","coordinates":[-118.62172997,37.310379982,0]}},{"type":"Feature","properties":{"name":"RUSHTH","desc":"RUSH CREEK TRAILHEAD 7200","time":"2005-08-07T00:20:11Z","sym":null},"geometry":{"type":"Point","coordinates":[-119.1277490854,37.7834880352,0]}},{"type":"Feature","properties":{"name":"FERNTH","desc":"FERN CREEK TRAILHEAD 7300","time":"2005-08-07T00:24:08Z","sym":null},"geometry":{"type":"Point","coordinates":[-119.1132999659,37.7627199888,0]}},{"type":"Feature","properties":{"name":"SABRIN","desc":"SABRINA LAKE TRAILHEAD 9000","time":"2005-07-03T23:09:05Z","sym":null},"geometry":{"type":"Point","coordinates":[-118.6100599766,37.2137299776,0]}},{"type":"Feature","properties":{"name":"LAKESC","desc":"LAKES CANYON TRAILHEAD 7800","time":"2005-07-24T01:56:23Z","sym":null},"geometry":{"type":"Point","coordinates":[-119.2193399668,38.0312999487,0]}},{"type":"Feature","properties":{"name":"LUNDYC","desc":"LUNDY CANYON TRAILHEAD 8100","time":"2005-07-24T01:56:23Z","sym":null},"geometry":{"type":"Point","coordinates":[-119.2618399858,38.0225800276,0]}},{"type":"Feature","properties":{"name":"LMRWIN","desc":"LAKE MARY RD WINTER TRAILHEAD 8600","time":"2005-07-24T01:56:28Z","sym":null},"geometry":{"type":"Point","coordinates":[-119.0059800148,37.6239800453,0]}},{"type":"Feature","properties":{"name":"MCGCRK","desc":"MCGEE CREEK TRAILHEAD 7800","time":"2005-07-24T01:56:25Z","sym":null},"geometry":{"type":"Point","coordinates":[-118.8025599718,37.5510400534,0]}},{"type":"Feature","properties":{"name":"REDLAK","desc":"RED LAKE TRAILHEAD 6600","time":"2005-07-03T23:09:13Z","sym":null},"geometry":{"type":"Point","coordinates":[-118.359779954,37.03647995,0]}},{"type":"Feature","properties":{"name":"LITCOT","desc":"LITTLE COTTONWOOD TRAILHEAD 9300","time":"2003-04-15T17:43:47Z","sym":null},"geometry":{"type":"Point","coordinates":[-118.1202700138,36.4732999802,0]}},{"type":"Feature","properties":{"name":"ARMYOT","desc":"ARMY PASS OLD TRAILHEAD 9600","time":"2003-04-15T17:40:16Z","sym":null},"geometry":{"type":"Point","coordinates":[-118.1622400284,36.4601099491,0]}},{"type":"Feature","properties":{"name":"MULKEY","desc":"MULKEY PASS TRAILHEAD 9900","time":"2003-04-15T17:40:24Z","sym":null},"geometry":{"type":"Point","coordinates":[-118.1613600254,36.4506499767,0]}},{"type":"Feature","properties":{"name":"NORTHC","desc":"NORTH LAKE CAMP AND TRAILHEAD 9300","time":"2005-07-07T13:20:40Z","sym":null},"geometry":{"type":"Point","coordinates":[-118.6274000406,37.2274399996,0]}},{"type":"Feature","properties":{"name":"OLIVAS","desc":"OLIVAS RANCH RD TRAILHEAD 6950","time":"2006-04-30T06:52:27Z","sym":null},"geometry":{"type":"Point","coordinates":[-118.183916688,36.5564166307,0]}},{"type":"Feature","properties":{"name":"PINCRK","desc":"PINE CREEK TRAILHEAD 7400","time":"2005-07-24T01:56:30Z","sym":null},"geometry":{"type":"Point","coordinates":[-118.6913599968,37.3611299992,0]}},{"type":"Feature","properties":{"name":"RNBWFT","desc":"RAINBOW FALLS TRAILHEAD 7700","time":"2004-07-27T03:40:13Z","sym":null},"geometry":{"type":"Point","coordinates":[-119.0765800476,37.6141899824,0]}},{"type":"Feature","properties":{"name":"TAMJCT","desc":"TAMARACK TRAILHEAD JCT","time":"2005-07-24T01:56:29Z","sym":null},"geometry":{"type":"Point","coordinates":[-118.7351700068,37.4570000172,0]}},{"type":"Feature","properties":{"name":"HILLAK","desc":"HILTON LAKES TRAILHEAD 9900","time":"2005-07-24T01:56:29Z","sym":null},"geometry":{"type":"Point","coordinates":[-118.7408900261,37.4549599886,0]}},{"type":"Feature","properties":{"name":"TAMLAK","desc":"TAMARACK LAKE TRAILHEAD 9700","time":"2005-07-24T01:56:29Z","sym":null},"geometry":{"type":"Point","coordinates":[-118.734349966,37.4517999887,0]}},{"type":"Feature","properties":{"name":"MOSFLT","desc":"MOSQUITO FLAT TRAILHEAD 10200","time":"2005-07-24T01:56:29Z","sym":null},"geometry":{"type":"Point","coordinates":[-118.7470699549,37.4351799488,0]}},{"type":"Feature","properties":{"name":"RUSHTH","desc":"RUSH CREEK TRAILHEAD 7200","time":"2005-08-07T00:20:11Z","sym":null},"geometry":{"type":"Point","coordinates":[-119.1277490854,37.7834880352,0]}},{"type":"Feature","properties":{"name":"SNDCAR","desc":"SAND CANYON TRAILHEAD","time":"2000-04-12T21:17:47Z","sym":null},"geometry":{"type":"Point","coordinates":[-117.9240666628,35.778183341,0]}},{"type":"Feature","properties":{"name":"SAWTH","desc":"SAWMILL PASS TRAILHEAD 4600","time":"2001-04-13T23:12:26Z","sym":null},"geometry":{"type":"Point","coordinates":[-118.2896300554,36.9388500452,0]}},{"type":"Feature","properties":{"name":"SHPRDH","desc":"HORSE TRAILHEAD SHEPHERD PASS","time":"2001-06-20T19:23:09Z","sym":null},"geometry":{"type":"Point","coordinates":[-118.2645900249,36.7375500202,0]}},{"type":"Feature","properties":{"name":"SHPRDT","desc":"SHEPHERD PASS TRAILHEAD 6300","time":"2001-06-20T19:23:10Z","sym":null},"geometry":{"type":"Point","coordinates":[-118.2786400318,36.72724998,0]}},{"type":"Feature","properties":{"name":"SWNJCT","desc":"SHERWIN CK TRAILHEAD JCT","time":"2005-07-24T01:56:26Z","sym":null},"geometry":{"type":"Point","coordinates":[-118.9471299648,37.6288100481,0]}},{"type":"Feature","properties":{"name":"SWNCRK","desc":"SHERWIN CREEK TRAILHEAD 7800","time":"2005-07-24T01:56:26Z","sym":null},"geometry":{"type":"Point","coordinates":[-118.9455800056,37.6245800257,0]}},{"type":"Feature","properties":{"name":"SWNJCT","desc":"SHERWIN CK TRAILHEAD JCT","time":"2005-07-24T01:56:26Z","sym":null},"geometry":{"type":"Point","coordinates":[-118.9471299648,37.6288100481,0]}},{"type":"Feature","properties":{"name":"SWNCRK","desc":"SHERWIN CREEK TRAILHEAD 7800","time":"2005-07-24T01:56:26Z","sym":null},"geometry":{"type":"Point","coordinates":[-118.9455800056,37.6245800257,0]}},{"type":"Feature","properties":{"name":"TYEELK","desc":"TYEE LAKES TRAILHEAD 9100","time":"2005-07-07T13:34:57Z","sym":null},"geometry":{"type":"Point","coordinates":[-118.5646100044,37.1959799528,0]}},{"type":"Feature","properties":{"name":"SOUTHL","desc":"SOUTH LAKE PARKING AND TRAILHEAD 9800","time":"2005-07-07T13:36:23Z","sym":null},"geometry":{"type":"Point","coordinates":[-118.5655599833,37.1694899797,0]}},{"type":"Feature","properties":{"name":"TABCRK","desc":"TABOOSE PASS TRAILHEAD 5400","time":"1999-07-15T17:32:50Z","sym":null},"geometry":{"type":"Point","coordinates":[-118.3269000053,37.0091999769,0]}},{"type":"Feature","properties":{"name":"REDLAK","desc":"RED LAKE TRAILHEAD 6600","time":"2005-07-03T23:09:13Z","sym":null},"geometry":{"type":"Point","coordinates":[-118.359779954,37.03647995,0]}},{"type":"Feature","properties":{"name":"TWINLK","desc":"TWIN LAKES TRAILHEAD 7100","time":"1999-09-02T06:28:27Z","sym":null},"geometry":{"type":"Point","coordinates":[-119.3776700497,38.1479200125,0]}},{"type":"Feature","properties":{"name":"VIRGLK","desc":"VIRGINIA LAKES TRAILHEAD 9800","time":"2005-07-24T01:56:24Z","sym":null},"geometry":{"type":"Point","coordinates":[-119.2631499767,38.0479700565,0]}},{"type":"Feature","properties":{"name":"MEYSAN","desc":"MEYSAN LAKE TRAILHEAD 7900","time":"2003-04-15T17:33:42Z","sym":null},"geometry":{"type":"Point","coordinates":[-118.2278900146,36.588430047,0]}},{"type":"Feature","properties":{"name":"PORTAL","desc":"WHITNEY PORTAL TRAILHEAD 8300","time":"2003-04-15T17:33:13Z","sym":null},"geometry":{"type":"Point","coordinates":[-118.2396899462,36.587010026,0]}},{"type":"Feature","properties":{"name":"SIERRA BUTTES LOOP","desc":"PCT HWY 49 TRAILHEAD","time":"2005-04-20T19:51:47Z"},"geometry":{"type":"LineString","coordinates":[[-120.6119400263,39.5765999556,0],[-120.6138999462,39.5876499414,0],[-120.6380699873,39.5773799419,0],[-120.6594500542,39.5903799534,0],[-120.6616300344,39.5993000269,0],[-120.6653599739,39.6116399765,0],[-120.6672199965,39.619410038,0],[-120.6618219614,39.6156024933,0],[-120.6535099745,39.623759985,0],[-120.6391099691,39.6297800541,0],[-120.6155099869,39.6220099926,0],[-120.6108700037,39.6210000515,0],[-120.5912799835,39.6169199944,0]]}},{"type":"Feature","properties":{"name":"DISATH","desc":"DISASTER PK TRAILHEAD ??","time":"2003-10-24T12:51:16Z","sym":null},"geometry":{"type":"Point","coordinates":[-119.7512600422,38.4176100492,0]}},{"type":"Feature","properties":{"name":"PCTJ49","desc":"PCT HWY 49 TRAILHEAD","time":"2005-04-20T19:51:47Z","sym":null},"geometry":{"type":"Point","coordinates":[-120.6119400263,39.5765999556,0]}},{"type":"Feature","properties":{"name":"PCTNTH","desc":"PCT NORTH RIDGE TRAILHEAD","time":"2005-04-21T16:06:14Z","sym":null},"geometry":{"type":"Point","coordinates":[-120.6653599739,39.6116399765,0]}},{"type":"Feature","properties":{"name":"STMARY","desc":"STANISLAUS PK TRAILHEAD","time":"2003-10-24T12:53:49Z","sym":null},"geometry":{"type":"Point","coordinates":[-119.6453299522,38.3365700245,0]}},{"type":"Feature","properties":{"name":"SNOWFP","desc":"SNOW FLAT TRAILHEAD PARKING","time":"2004-09-15T18:10:49Z","sym":null},"geometry":{"type":"Point","coordinates":[-119.4908599854,37.8326599598,0]}},{"type":"Feature","properties":{"name":"CATHED","desc":"CATHEDRAL LAKES TRAILHEAD","time":"2001-08-05T21:04:04Z","sym":null},"geometry":{"type":"Point","coordinates":[-119.3825700283,37.8733799458,0]}},{"type":"Feature","properties":{"name":"LEMBRT","desc":"LEMBERT DOME TRAILHEAD","time":"2004-09-15T18:11:17Z","sym":null},"geometry":{"type":"Point","coordinates":[-119.3569999933,37.8784099817,0]}},{"type":"Feature","properties":{"name":"BIG MDW LONG VLY","desc":"TAYLOR MEADOW TRAILHEAD 7800","time":"2005-09-27T20:32:29Z"},"geometry":{"type":"LineString","coordinates":[[-118.3262599707,35.8676099777,0],[-118.3143199682,35.8577599525,0],[-118.3032599688,35.8563599586,0],[-118.3023799658,35.8663599491,0],[-118.2889000177,35.8724499941,0],[-118.2793500423,35.8828799725,0],[-118.2495499849,35.886500001,0],[-118.2281299829,35.8889199495,0],[-118.2284699678,35.900949955,0],[-118.1913599968,35.8904299736,0],[-118.1871800423,35.8953200579,0],[-118.1740000248,35.9046599865,0],[-118.1238900423,35.8915799856,0]]}},{"type":"Feature","properties":{"name":"TAYLTH","desc":"TAYLOR MEADOW TRAILHEAD 7800","time":"2005-09-27T20:32:29Z","sym":null},"geometry":{"type":"Point","coordinates":[-118.3262599707,35.8676099777,0]}},{"type":"Feature","properties":{"name":"TAYLTH","desc":"TAYLOR MEADOW TRAILHEAD 7800","time":"2005-09-27T20:32:29Z","sym":null},"geometry":{"type":"Point","coordinates":[-118.3262599707,35.8676099777,0]}},{"type":"Feature","properties":{"name":"MANTRS","desc":"SOUTH MANTER MDW TRAILHEAD 7800","time":"2005-09-27T20:32:07Z","sym":null},"geometry":{"type":"Point","coordinates":[-118.3263200521,35.8688299656,0]}},{"type":"Feature","properties":{"name":"MANTRN","desc":"NORTH MANTER MDW TRAILHEAD 7800","time":"2005-09-27T20:31:49Z","sym":null},"geometry":{"type":"Point","coordinates":[-118.3337299824,35.8883800507,0]}},{"type":"Feature","properties":{"name":"SIRETH","desc":"SIRRETTA TRAILHEAD 7800","time":"2005-09-27T20:31:18Z","sym":null},"geometry":{"type":"Point","coordinates":[-118.3381199837,35.8970799446,0]}},{"type":"Feature","properties":{"name":"BLACKT","desc":"BLACKROCK TRAILHEAD 8900","time":"1999-09-13T09:28:43Z","sym":null},"geometry":{"type":"Point","coordinates":[-118.2691800594,36.1757800579,0]}},{"type":"Feature","properties":{"name":"CANLAM","desc":"CANEBRAKE RD AT LAMONT TRAILHEAD","time":"2000-04-14T00:53:01Z","sym":null},"geometry":{"type":"Point","coordinates":[-118.0718833208,35.7877833843,0]}},{"type":"Feature","properties":{"name":"HIDDEN","desc":"HIDDEN FALLS TRAILHEAD","time":"2001-06-07T06:25:02Z","sym":null},"geometry":{"type":"Point","coordinates":[-118.6633800268,36.258409977,0]}},{"type":"Feature","properties":{"name":"KENMTH","desc":"KENNEDY MDW TRAILHEAD 6100","time":"2005-09-27T20:47:31Z","sym":null},"geometry":{"type":"Point","coordinates":[-118.1303700209,36.0544600487,0]}},{"type":"Feature","properties":{"name":"FINGRT","desc":"FIVE FINGERS TRAILHEAD","time":"2006-01-21T02:16:18Z","sym":null},"geometry":{"type":"Point","coordinates":[-117.9174300432,35.6833000183,0]}},{"type":"Feature","properties":{"name":"OPPARK","desc":"TRAILHEAD AND CAMPING 5400","time":"2005-10-08T02:09:10Z","sym":null},"geometry":{"type":"Point","coordinates":[-117.974342823,35.7154310942,0]}},{"type":"Feature","properties":{"name":"SNDCAR","desc":"SAND CANYON TRAILHEAD","time":"2000-04-12T21:17:47Z","sym":null},"geometry":{"type":"Point","coordinates":[-117.9240666628,35.778183341,0]}},{"type":"Feature","properties":{"name":"SHAKEC","desc":"SHAKE CAMP TRAILHEAD","time":"2001-06-07T06:24:59Z","sym":null},"geometry":{"type":"Point","coordinates":[-118.6711800098,36.2492899895,0]}}]}